[{"time":"1/19/2015 22:32:56","fullName":"Emmanuel Henri","email":"manny@mannydesigns.co","ticketLink":"https://www.eventbrite.ca/e/ng-conf-extended-angularjs-tickets-15386562623","locationName":"Saint-Amable (Montreal ara)","lat":45.65,"long":73.3,"live":"Watching Live"},{"time":"1/20/2015 10:18:44","fullName":"Josue Gutierrez","email":"josue.ggh@gmail.com","ticketLink":"http://www.meetup.com/AngularJS-Mexico/events/219960190/","locationName":"Centraal","lat":19.412068,"long":99.180548,"live":"Watching Live"},{"time":"1/21/2015 4:08:55","fullName":"Bogdan Tsap","email":"bohdaq@gmail.com","ticketLink":"https://www.eventbrite.com/e/ng-conf-extended-lviv-tickets-15415635581","locationName":"Betaplace, coworking\nLviv, Ukraine","lat":49.842786,"long":"23.998821,17","live":"Watching Live"},{"time":"1/21/2015 8:54:58","fullName":"Clint Harvey","email":"clint.harvey@mittera.com","ticketLink":"https://www.eventbrite.com/e/ng-conf-extended-des-moines-tickets-6350768319","locationName":"Fleming Building, viewing room","lat":41.5853561,"long":-93.6238511,"live":"Watching Live"},{"time":"1/21/2015 10:45:45","fullName":"Riley Bracken","email":"riley@underbelly.is","ticketLink":"https://www.eventbrite.com/e/ng-conf-extended-underbelly-tickets-15423073829","locationName":"Underbelly Creative","lat":40.7619061,"long":-111.8985046,"live":"Watching Live"},{"time":"1/21/2015 11:19:10","fullName":"Loc Nguyen","email":"lochnguyen@gmail.com","ticketLink":"http://www.meetup.com/AngularJS-OC/events/219947596/","locationName":"PeopleSpace","lat":33.6990804,"long":-117.847638,"live":"Watching Live"},{"time":"1/21/2015 17:25:03","fullName":"Cristina Logue","email":"clogue@learningobjects.com","ticketLink":"http://www.meetup.com/AngularJS-DC/events/219990604/","locationName":"Difference Engine","lat":38.9108222,"long":-77.0443788,"live":"Watching Live"},{"time":"1/23/2015 1:24:38","fullName":"Maxim Salnikov","email":"salnikov@gmail.com","ticketLink":"http://www.meetup.com/AngularJS-Oslo/","locationName":"Teknologihuset","lat":59.92384,"long":10.731749,"live":"Watching Live"},{"time":"1/24/2015 9:21:30","fullName":"Michal Karzynski","email":"michal@karzynski.pl","ticketLink":"http://ngconf.atarnia.com/","locationName":"PPNT, Gdynia","lat":54.494703,"long":18.5380922,"live":"Watching Live"},{"time":"2/1/2015 13:23:33","fullName":"Roberto Tjin","email":"Roberto.Tjin@ing.nl","ticketLink":"http://www.meetup.com/Dutch-AngularJS-group/events/220113094/","locationName":"ING Amsterdamse Poort","lat":52.313484,"long":4.9522376,"live":"Watching Live"},{"time":"2/4/2015 19:23:44","fullName":"Jeff Couch","email":"jeff@uberops.com","ticketLink":"https://www.eventbrite.com/e/ng-conf-extended-tickets-15644222290","locationName":"Domi Station","lat":-84.291,"long":30.434,"live":"Watching Live"},{"time":"2/4/2015 21:37:18","fullName":"Yogesh Mathur","email":"yogesh.mathur@capitalone.com","ticketLink":"https://www.eventbrite.com/e/ng-conf-livestream-tickets-15645051771","locationName":"Atrium Corporate Center, Rolling Meadows, IL","lat":42.055373,"long":-88.025135,"live":"Watching Live"}]